City_ID,City,Cloudiness,Country,Date,Humidity,Lat,Lng,Max Temp,Wind Speed
0,Raudeberg,34,NO,1680383681,76,61.9875,5.1352,34.47,2.46
1,Rikitea,34,PF,1680383454,81,-23.1203,-134.9692,80.19,15.95
2,Lebu,99,CL,1680383682,83,-37.6167,-73.65,61.27,9.91
3,Chui,15,UY,1680383682,61,-33.6971,-53.4616,65.53,8.39
4,Sringeri,18,IN,1680383682,94,13.4167,75.25,63.81,1.72
5,Tasiilaq,100,GL,1680383682,85,65.6145,-37.6368,30.36,3.15
6,Ancud,74,CL,1680383682,80,-41.8697,-73.8203,56.26,6.42
7,Bilibino,99,RU,1680383683,99,68.0546,166.4372,-13.79,2.19
8,Kenitra,74,MA,1680383683,85,34.261,-6.5802,57.96,1.32
9,Vila Velha,40,BR,1680383527,78,-20.3297,-40.2925,80.55,1.14
10,Batemans Bay,100,AU,1680383683,85,-35.7167,150.1833,60.1,5.7
11,Thompson,100,CA,1680383202,80,55.7435,-97.8558,17.24,6.8
12,Faanui,0,PF,1680383684,72,-16.4833,-151.75,82.22,7.27
13,Bluff,100,NZ,1680383684,74,-46.6,168.3333,55.8,15.79
14,Barillas,3,GT,1680383684,39,15.8036,-91.3158,78.33,6.08
15,Jiayuguan City,100,CN,1680383685,43,39.8167,98.3,30.78,9.24
16,Ushuaia,0,AR,1680383685,61,-54.8,-68.3,47.86,20.71
17,Port Hardy,75,CA,1680383685,87,50.6996,-127.4199,41.18,12.66
18,Coquimbo,0,CL,1680383425,68,-29.9533,-71.3436,67.73,11.5
19,Jamestown,100,US,1680383685,87,42.097,-79.2353,42.39,27.63
20,Agadir,0,MA,1680383685,55,30.4202,-9.5982,64.85,3.83
21,Urman,100,RU,1680383686,98,54.8831,56.8742,35.08,3.15
22,Erzin,100,TR,1680383686,87,36.9559,36.2,53.49,2.35
23,Busselton,2,AU,1680383686,90,-33.65,115.3333,57.52,7.49
24,Feira Nova,99,BR,1680383686,74,-7.9508,-35.3892,77.25,9.95
25,Qaanaaq,6,GL,1680383687,73,77.484,-69.3632,-11.24,3.74
26,Mizdah,6,LY,1680383687,17,31.4451,12.9801,70.02,2.42
27,Gorontalo,100,ID,1680383687,94,0.5412,123.0595,75.07,2.86
28,Albany,1,US,1680383646,30,42.6001,-73.9662,71.46,9.53
29,Port Elizabeth,2,ZA,1680383688,93,-33.918,25.5701,67.32,5.99
30,Port Alfred,37,ZA,1680383688,90,-33.5906,26.891,67.17,1.01
31,Cape Town,0,ZA,1680383082,83,-33.9258,18.4232,65.12,13.8
32,Hithadhoo,97,MV,1680383688,71,-0.6,73.0833,81.97,5.35
33,New Norfolk,100,AU,1680383194,81,-42.7826,147.0587,54.91,1.99
34,Bubaque,0,GW,1680383689,75,11.2833,-15.8333,77.67,19.69
35,Butaritari,100,KI,1680383689,76,3.0707,172.7902,81.46,12.95
36,Arraial do Cabo,40,BR,1680383199,89,-22.9661,-42.0278,80.56,16.11
37,Outjo,80,NA,1680383689,23,-20.1167,16.15,73.53,5.17
38,Avarua,75,CK,1680383690,83,-21.2078,-159.775,82.45,6.91
39,Nhulunbuy,83,AU,1680383690,88,-12.2333,136.7667,77.61,0.0
40,St. George's,75,GD,1680383504,69,12.0564,-61.7485,82.08,17.27
41,Airai,100,TL,1680383196,95,-8.9266,125.4092,59.41,2.13
42,Barra do Corda,100,BR,1680383690,93,-5.5,-45.25,76.01,4.14
43,Santa Isabel Rio Negro,100,BR,1680383690,95,-0.4139,-65.0192,76.44,1.88
44,Zliten,17,LY,1680383691,54,32.4674,14.5687,67.35,8.28
45,Necochea,94,AR,1680383691,46,-38.5473,-58.7368,64.85,8.01
46,Hobart,75,AU,1680383691,80,-42.8794,147.3294,55.26,10.36
47,Zyryanka,100,RU,1680383691,97,65.75,150.85,-3.26,15.59
48,Barrow,100,US,1680383692,92,71.2906,-156.7887,-0.38,9.22
49,Christchurch,100,NZ,1680383606,65,-43.5333,172.6333,68.32,17.27
50,Dikson,100,RU,1680383693,100,73.5069,80.5464,7.34,5.08
51,Marrakesh,0,MA,1680383694,46,31.6315,-8.0083,75.27,13.8
52,Srednekolymsk,100,RU,1680383694,97,67.45,153.6833,-11.34,7.14
53,Kaitangata,78,NZ,1680383694,95,-46.2817,169.8464,52.93,8.61
54,Notre-Dame-du-Lac,100,CA,1680383694,95,47.6136,-68.7964,33.87,10.18
55,Provideniya,98,RU,1680383695,90,64.3833,-173.3,19.36,8.86
56,Garut,100,ID,1680383632,91,-7.2024,107.8878,69.1,2.73
57,São João da Barra,83,BR,1680383474,85,-21.6403,-41.0511,82.49,6.6
58,Kruisfontein,1,ZA,1680383695,73,-34.0033,24.7314,59.2,5.19
59,Tshikapa,100,CD,1680383695,95,-6.4167,20.8,69.82,2.37
60,Yellowknife,100,CA,1680383696,93,62.456,-114.3525,11.12,17.58
61,Göksun,100,TR,1680383696,94,38.021,36.4973,35.24,4.83
62,Norman Wells,100,CA,1680383696,81,65.282,-126.8329,17.04,2.33
63,Codajás,99,BR,1680383696,97,-3.8367,-62.0569,75.29,3.33
64,Pala,31,TD,1680383696,16,9.3642,14.9046,89.35,3.58
65,Conneaut,100,US,1680383697,92,41.9476,-80.5542,43.12,26.75
66,Mahébourg,6,MU,1680383697,76,-20.4081,57.7,77.25,7.99
67,East London,80,ZA,1680383499,84,-33.0153,27.9116,70.3,11.56
68,Waipawa,53,NZ,1680383698,73,-41.4122,175.5153,62.91,15.9
69,Lagoa,100,PT,1680383698,89,39.05,-27.9833,60.57,24.92
70,Punta Arenas,75,CL,1680383538,62,-53.15,-70.9167,51.91,16.11
71,Luorong,99,CN,1680383698,95,24.4058,109.6086,70.61,2.77
72,Portland,40,US,1680382929,85,45.5234,-122.6762,50.2,7.0
73,Atuona,17,PF,1680383698,79,-9.8,-139.0333,80.44,15.84
74,Vaini,6,TO,1680383699,77,-21.2,-175.2,79.5,16.91
75,Saint George,0,US,1680383654,29,37.1041,-113.5841,67.95,5.75
76,São Filipe,0,CV,1680383699,54,14.8961,-24.4956,79.92,5.01
77,Lixouri,100,GR,1680383699,81,38.2019,20.4314,59.74,6.91
78,Kemijärvi,34,FI,1680383700,89,66.7131,27.4306,20.21,9.33
79,Atasū,0,KZ,1680383700,50,48.6814,71.6433,27.19,13.67
80,Vuktyl,100,RU,1680383700,98,63.8567,57.3094,33.78,14.58
81,Tiksi,95,RU,1680383203,80,71.6872,128.8694,0.41,25.1
82,Berlevåg,100,NO,1680383201,68,70.8578,29.0864,26.6,25.32
83,Manyana,66,BW,1680383701,46,-23.4,21.7167,72.61,3.22
84,Chapais,100,CA,1680383702,89,49.7834,-74.8492,28.18,14.85
85,Loveland,0,US,1680383702,19,40.3978,-105.075,68.23,12.66
86,Santa Rosa,99,PH,1680383703,82,14.3122,121.1114,80.58,1.36
87,Kavieng,100,PG,1680383703,80,-2.5744,150.7967,80.6,3.49
88,Acapulco de Juárez,0,MX,1680383665,62,16.8634,-99.8901,87.62,9.22
89,Puerto Ayora,89,EC,1680383704,87,-0.7393,-90.3518,87.76,7.0
90,Puerto Carreño,100,CO,1680383704,68,6.189,-67.4859,81.05,7.45
91,Mataura,100,NZ,1680383704,98,-46.1927,168.8643,55.47,5.73
92,Mayo,20,US,1680383704,64,38.8876,-76.5119,78.12,20.71
93,Ambanja,100,MG,1680383705,95,-13.6833,48.45,74.61,3.4
94,Saint Paul Harbor,0,US,1680383705,41,57.79,-152.4072,38.71,32.21
95,Souillac,4,MU,1680383705,79,-20.5167,57.5167,77.05,7.78
96,Cabo San Lucas,75,MX,1680383706,45,22.8909,-109.9124,85.6,4.0
97,Mongaguá,90,BR,1680383425,97,-24.0931,-46.6208,80.65,4.68
98,Nuuk,75,GL,1680383706,50,64.1835,-51.7216,27.21,13.0
99,Hermanus,0,ZA,1680383707,87,-34.4187,19.2345,61.81,8.79
100,Chokurdakh,98,RU,1680383707,100,70.6333,147.9167,-27.15,6.96
101,Burnie,100,AU,1680383707,89,-41.0667,145.9167,50.94,7.74
102,Caculé,7,BR,1680383708,28,-14.5033,-42.2222,82.87,5.12
103,Al Bardīyah,18,LY,1680383708,38,31.7561,25.0865,66.0,8.28
104,Shingū,100,JP,1680383199,81,33.7333,135.9833,56.82,9.75
105,Talnakh,100,RU,1680383708,94,69.4865,88.3972,18.21,18.95
106,Kapaa,100,US,1680383709,85,22.0752,-159.319,75.52,19.57
107,Mossamedes,98,AO,1680383197,82,-15.1961,12.1522,75.79,6.2
108,Salinas,0,US,1680383644,53,36.6777,-121.6555,66.56,12.66
109,Mar del Plata,100,AR,1680383709,68,-38.0023,-57.5575,64.83,1.99
110,Karratha,76,AU,1680383709,74,-20.7377,116.8463,80.67,4.59
111,Bulungu,100,CD,1680383710,93,-4.55,18.6,71.92,1.68
112,Deputatsky,55,RU,1680383710,99,69.3,139.9,-25.2,5.75
113,Severo-Kuril'sk,43,RU,1680383710,93,50.6789,156.125,32.09,16.87
114,Kidal,1,ML,1680383711,8,18.4411,1.4078,80.47,12.77
115,Patea,6,NZ,1680383711,79,-39.7583,174.4833,65.1,9.13
116,Port Lincoln,24,AU,1680383711,66,-34.7333,135.8667,57.52,10.2
117,Vostok,17,RU,1680383712,77,46.4856,135.8833,27.28,4.34
118,Surin,90,TH,1680383712,99,14.8818,103.4936,82.92,9.08
119,Beringovskiy,79,RU,1680383712,67,63.05,179.3167,15.69,22.17
120,Gold Coast,0,AU,1680383712,92,-28.0,153.4333,67.03,4.61
121,Novobureyskiy,100,RU,1680383712,43,49.798,129.8774,44.78,11.25
122,Ishigaki,93,JP,1680383713,76,24.3448,124.1572,71.46,14.14
123,Upernavik,41,GL,1680383713,97,72.7868,-56.1549,-17.5,10.36
124,Kyakhta,100,RU,1680383713,47,50.3508,106.4494,15.1,16.37
125,Longyearbyen,75,SJ,1680383508,72,78.2186,15.6401,10.24,9.22
126,Menongue,99,AO,1680383714,90,-14.6585,17.691,63.86,3.51
127,Cidreira,92,BR,1680383714,60,-30.1811,-50.2056,70.95,13.98
128,Broken Hill,0,AU,1680383714,55,-31.95,141.4333,50.18,9.19
129,Herat Province,0,AF,1680383714,58,34.5,62.0,58.28,9.24
130,Mbandaka,43,CD,1680383714,78,0.0487,18.2603,74.86,3.0
131,Alofi,75,NU,1680383005,89,-19.0595,-169.9187,80.49,11.5
132,Coyhaique,40,CL,1680383715,50,-45.5752,-72.0662,56.01,9.22
133,Uglekamensk,44,RU,1680383716,57,43.2172,133.2303,34.52,1.32
134,Hope Mills,0,US,1680383717,49,34.9704,-78.9453,80.38,31.07
135,Tuktoyaktuk,12,CA,1680383717,87,69.4541,-133.0374,-3.5,10.0
136,Dāmghān,0,IR,1680383718,47,36.1683,54.348,42.26,5.7
137,Bredasdorp,0,ZA,1680383718,95,-34.5322,20.0403,61.38,4.97
138,Kasongo-Lunda,99,CD,1680383718,98,-6.4667,16.8167,70.29,1.34
139,Sulangan,100,PH,1680383719,77,11.1373,123.7228,80.82,7.54
140,Frontera,100,MX,1680383719,37,26.9333,-101.45,75.52,7.81
141,Verkh-Usugli,100,RU,1680383719,47,52.7,115.1667,20.12,9.8
142,Riyadh,10,SA,1680383599,22,24.6877,46.7219,59.14,8.48
143,Vestmannaeyjar,100,IS,1680383720,63,63.4427,-20.2734,41.99,22.86
144,San Cristobal,100,VE,1680383720,92,7.7669,-72.225,66.38,3.69
145,Nikolskoye,100,RU,1680383720,97,59.7035,30.7861,33.69,5.12
146,Cockburn Town,4,TC,1680383525,76,21.4612,-71.1419,77.54,16.02
147,George Town,20,MY,1680383505,89,5.4112,100.3354,82.33,0.0
148,Cam Ranh,51,VN,1680383721,77,11.9214,109.1591,73.4,2.21
149,Kibala,6,TD,1680383721,26,9.1104,18.3463,89.67,4.45
150,Ponta do Sol,0,PT,1680383194,62,32.6667,-17.1,72.72,3.02
151,Koāth,7,IN,1680383722,67,25.3167,84.2667,68.36,4.36
152,Teyateyaneng,50,LS,1680383722,56,-29.1472,27.7489,56.98,3.76
153,Walvis Bay,14,NA,1680383722,85,-22.9575,14.5053,60.96,5.93
154,Sirte,1,LY,1680383722,31,31.2089,16.5887,72.16,9.4
155,Todos Santos,100,MX,1680383532,71,23.45,-110.2167,74.44,11.88
156,Tamiahua,47,MX,1680383723,70,21.2667,-97.45,84.0,11.92
157,La Ronge,100,CA,1680383716,90,55.1001,-105.2842,28.62,13.22
158,Ambilobe,86,MG,1680383723,95,-13.2,49.05,73.6,3.22
159,Kurya,5,RU,1680383724,61,51.6003,82.2888,18.57,15.99
160,Lata,100,PT,1680383724,98,40.1629,-8.3327,57.92,3.94
161,Orocué,92,CO,1680383724,63,4.7912,-71.3354,83.26,2.71
162,Ferme-Neuve,100,CA,1680383724,98,46.7001,-75.4493,33.42,6.44
163,Saint-Philippe,44,RE,1680383725,83,-21.3585,55.7679,76.59,11.81
164,Alberton,100,CA,1680383725,97,46.8168,-64.0654,31.91,21.72
165,Huarmey,100,PE,1680383725,78,-10.0681,-78.1522,78.53,7.65
166,Médéa,2,DZ,1680383657,89,36.2642,2.7539,50.63,3.67
167,Codrington,41,AU,1680383192,84,-38.2667,141.9667,48.83,3.44
168,Pacific Grove,0,US,1680383726,61,36.6177,-121.9166,65.39,10.36
169,Yining,0,CN,1680383726,86,29.0361,114.5636,58.3,2.91
170,Puerto Madero,75,MX,1680383726,66,14.7208,-92.4215,89.8,14.97
171,Hilo,75,US,1680383726,75,19.7297,-155.09,85.28,10.36
172,Balabac,100,PH,1680383727,80,7.9868,117.0645,79.38,4.12
173,Narsaq,75,GL,1680383727,80,60.9167,-46.05,32.22,4.29
174,Chumikan,99,RU,1680383727,95,54.7183,135.315,25.25,3.09
175,Rundu,98,NA,1680383728,63,-17.9333,19.7667,69.57,5.21
176,Price,0,US,1680383493,35,39.5994,-110.8107,52.86,12.53
177,Russell,94,US,1680383728,34,32.3502,-85.1999,84.0,12.48
178,Río Gallegos,0,AR,1680383552,38,-51.6226,-69.2181,57.25,28.77
179,Bethel,0,US,1680383187,51,41.3712,-73.414,72.45,13.8
180,Yangi Marg`ilon,99,UZ,1680383728,55,40.4272,71.7189,59.72,9.22
181,Aleksandrov Gay,100,RU,1680383729,65,50.147,48.5704,45.46,13.13
182,Ostrovnoy,87,RU,1680383199,84,68.0531,39.5131,22.23,7.94
183,Khorramshahr,0,IR,1680383729,31,30.4397,48.1664,55.35,10.18
184,Castro,49,BR,1680383558,77,-24.7911,-50.0119,70.02,2.01
185,Mimongo,100,GA,1680383729,99,-1.6195,11.6068,69.53,3.2
186,Monte Patria,36,CL,1680383729,33,-30.6919,-70.9467,81.81,6.64
187,Samarai,100,PG,1680383730,76,-10.6167,150.6667,81.99,7.72
188,Nanning,95,CN,1680383730,96,22.8167,108.3167,73.2,9.4
189,Puerto Madryn,88,AR,1680383730,27,-42.7692,-65.0385,77.25,19.22
190,Lamu,12,KE,1680383730,81,-2.2717,40.902,82.62,13.0
191,Malim,100,PH,1680383731,89,7.452,123.4312,76.55,5.28
192,Esperance,100,AU,1680383731,84,-33.8667,121.9,64.2,12.86
193,Nanortalik,15,GL,1680383731,82,60.1432,-45.2371,27.52,3.91
194,Peabiru,4,BR,1680383732,81,-23.9128,-52.3431,75.34,4.63
195,Rocha,8,UY,1680383732,58,-34.4833,-54.3333,64.69,7.34
196,Comodoro Rivadavia,0,AR,1680383492,23,-45.8667,-67.5,71.46,24.16
197,Hay River,100,CA,1680383716,73,60.8156,-115.7999,17.56,9.22
198,Mandalgovi,100,MN,1680383732,82,45.7625,106.2708,12.42,24.25
199,Lorengau,99,PG,1680383733,79,-2.0226,147.2712,80.47,3.69
200,Vila Franca do Campo,100,PT,1680383733,90,37.7167,-25.4333,64.81,16.06
201,Aykhal,100,RU,1680383733,91,66.0,111.5,5.04,22.21
202,Kenai,0,US,1680383734,44,60.5544,-151.2583,37.49,14.97
203,Taltal,34,CL,1680383734,78,-25.4,-70.4833,71.98,4.65
204,Ponta Delgada,20,PT,1680383734,82,37.7333,-25.6667,65.12,16.11
205,Tanout,65,NE,1680383734,10,14.9709,8.8879,75.87,11.07
206,Hamilton,100,US,1680383604,68,39.1834,-84.5333,44.65,26.46
207,Hong Kong,100,HK,1680383475,93,22.2855,114.1577,72.95,1.01
208,Voh,12,NC,1680383735,80,-20.9667,164.7,78.76,0.76
209,Jerome,100,US,1680383735,60,42.7241,-114.5186,50.68,16.11
210,Sitka,75,US,1680383735,70,57.0531,-135.33,42.69,5.75
211,Thinadhoo,96,MV,1680383736,76,0.5333,72.9333,81.48,4.81
212,Paita,90,PE,1680383736,68,-5.0892,-81.1144,83.01,12.19
213,Douglas,0,US,1680383576,27,41.3,-96.167,54.86,6.91
214,Fort Saint James,15,CA,1680383736,67,54.4333,-124.25,38.53,8.68
215,Ahipara,100,NZ,1680383202,89,-35.1667,173.1667,65.93,0.78
216,Lompoc,0,US,1680383737,62,34.6391,-120.4579,72.7,20.0
217,Katobu,99,ID,1680383737,95,-4.9408,122.5276,74.32,1.68
218,Eustis,20,US,1680383737,50,28.8528,-81.6853,89.92,12.66
219,Fortuna,100,US,1680383737,91,40.5982,-124.1573,50.94,3.0
220,Champerico,99,GT,1680383738,61,14.3,-91.9167,85.73,12.68
221,Ryōtsu-minato,0,JP,1680383738,71,38.0833,138.4333,46.35,14.2
222,Kloulklubed,85,PW,1680383740,73,7.0419,134.2556,73.9,3.87
223,Ribeira Grande,100,PT,1680383740,93,38.5167,-28.7,63.77,21.0
224,Hauterive,100,FR,1680383741,95,46.0901,3.4459,48.96,8.1
225,Road Town,40,VG,1680383741,65,18.4167,-64.6167,82.49,12.66
226,Touros,100,BR,1680383741,78,-5.1989,-35.4608,79.93,11.99
227,Los Llanos de Aridane,0,ES,1680383193,83,28.6585,-17.9182,64.15,13.8
228,Santa Cruz de La Palma,0,ES,1680383742,83,28.6835,-17.7642,68.14,14.97
229,Poopó,89,BO,1680383471,37,-18.3667,-66.9667,56.64,5.08
230,Winslow,0,US,1680383742,15,35.0242,-110.6974,64.58,5.75
231,Gillette,0,US,1680383742,43,44.2911,-105.5022,50.92,18.41
232,Katsuura,100,JP,1680383489,72,35.1333,140.3,58.57,14.65
233,Saskylakh,100,RU,1680383503,91,71.9167,114.0833,15.78,16.08
234,Rock Sound,11,BS,1680383743,77,24.9,-76.2,76.73,12.39
235,Shihezi,0,CN,1680383743,27,44.3,86.0333,31.41,10.78
236,São Domingos do Maranhão,100,BR,1680383744,90,-5.5758,-44.3853,75.83,2.3
237,Isiolo,66,KE,1680383744,64,0.3546,37.5822,72.82,6.71
238,Xai-Xai,0,MZ,1680383744,90,-25.0519,33.6442,71.62,5.97
239,Bathsheba,40,BB,1680383195,74,13.2167,-59.5167,81.21,18.41
240,Laas,100,IT,1680383745,90,46.6166,10.7002,44.69,4.32
241,Kunashak,74,RU,1680383745,80,55.7032,61.5498,30.72,10.33
242,Lufilufi,97,WS,1680383745,71,-13.8745,-171.5986,87.58,3.76
243,Honiara,96,SB,1680383745,83,-9.4333,159.95,79.86,1.12
244,Ixtapa,75,MX,1680383745,73,20.7,-105.2,76.23,14.97
245,Lavrentiya,100,RU,1680383746,92,65.5833,-171.0,25.95,7.2
246,Carnarvon,74,AU,1680383500,77,-24.8667,113.6333,74.91,12.46
247,Mehrān,0,IR,1680383746,37,33.1222,46.1646,53.2,8.34
248,Zaria,19,NG,1680383747,13,11.1113,7.7227,78.57,10.49
249,Bloemfontein,53,ZA,1680383747,82,-29.1211,26.214,58.48,0.0
250,Mountain Home,100,US,1680383747,81,43.133,-115.6912,42.28,31.07
251,Tual,100,ID,1680383747,73,-5.6667,132.75,82.63,5.08
252,Emba,82,KZ,1680383747,30,48.8264,58.1442,47.21,21.03
253,Alihe,100,CN,1680383747,91,50.5667,123.7167,42.93,3.71
254,Bāfq,0,IR,1680383748,17,31.6128,55.4107,62.26,6.8
255,Ankazoabo,97,MG,1680383748,91,-22.2833,44.5167,71.83,3.87
256,Magadan,99,RU,1680383749,96,59.5667,150.8,25.54,5.01
257,Ilo,0,PE,1680383749,73,-17.6394,-71.3375,77.86,6.91
258,Khovd,100,MN,1680383749,47,48.0056,91.6419,8.1,6.4
259,Bengkulu,98,ID,1680383750,89,-3.8004,102.2655,73.85,3.87
260,Kerema,81,PG,1680383750,84,-7.9631,145.7785,77.52,3.58
261,Dubbo,4,AU,1680383750,87,-32.25,148.6167,50.13,9.22
262,Tomeşti,100,RO,1680383750,97,47.1167,27.6833,50.13,5.99
263,Sudzha,100,RU,1680383750,89,51.1976,35.2726,43.02,10.13
264,Cap Malheureux,5,MU,1680383751,77,-19.9842,57.6142,77.47,3.0
265,Kamyshin,100,RU,1680383751,55,50.0983,45.416,47.05,3.8
266,Asău,100,RO,1680383751,92,46.4333,26.4,45.52,3.02
267,Iqaluit,20,CA,1680383751,77,63.7506,-68.5145,6.53,3.44
268,West Wendover,20,US,1680383751,19,40.7391,-114.0733,56.41,17.27
269,Kahului,20,US,1680383752,59,20.8947,-156.47,84.22,17.27
270,Dubti,58,ET,1680383752,55,11.7361,41.0853,86.18,6.06
271,Lázaro Cárdenas,24,MX,1680383752,45,17.9583,-102.2,85.51,10.38
272,Palmer,40,US,1680383753,68,42.1584,-72.3287,67.32,13.8
273,Deming,0,US,1680383753,8,32.2687,-107.7586,73.29,12.66
274,Te Anau,88,NZ,1680383753,94,-45.4167,167.7167,52.25,0.83
275,Båtsfjord,100,NO,1680383753,80,70.6345,29.7185,26.53,23.02
276,Egvekinot,100,RU,1680383753,93,66.3167,-179.1667,11.8,1.74
277,Miracema do Tocantins,81,BR,1680383754,85,-9.5618,-48.3967,77.97,3.74
278,Nekhayevskiy,65,RU,1680383754,80,50.4106,41.7561,40.55,3.58
279,Salalah,75,OM,1680383754,78,17.0151,54.0924,82.49,6.91
280,Mandera,66,KE,1680383754,41,3.9366,41.867,90.75,6.2
281,Cherskiy,100,RU,1680383754,100,68.75,161.3,-21.48,4.36
282,Aras,75,ES,1680383755,53,42.5617,-2.356,45.01,13.8
283,Viseu,67,PT,1680383566,97,40.661,-7.9097,54.73,3.06
284,Miles City,100,US,1680383654,28,46.4083,-105.8406,58.17,14.97
285,Pevek,100,RU,1680383755,94,69.7008,170.3133,-10.73,10.71
286,Muzhi,100,RU,1680383755,89,65.3667,64.6667,35.49,18.72
287,Xining,100,CN,1680383756,80,36.6167,101.7667,37.06,5.61
288,Pochutla,53,MX,1680383756,47,15.7432,-96.4661,90.82,9.01
289,Hīt,1,IQ,1680383756,35,33.6416,42.8251,58.33,6.51
290,Vitim,92,RU,1680383757,100,59.4511,112.5578,-5.94,0.72
291,Santa Catarina de Tepehuanes,99,MX,1680383757,10,25.35,-105.7333,82.42,17.2
292,Kiryat Gat,0,IL,1680383757,100,31.61,34.7642,56.39,4.12
293,Phan Thiet,68,VN,1680383757,81,10.9333,108.1,73.27,3.02
294,Boende,71,CD,1680383758,76,-0.2167,20.8667,70.66,1.23
295,Netivot,0,IL,1680383758,70,31.4222,34.5886,49.6,4.16
296,Leningradskiy,100,RU,1680383203,93,69.3833,178.4167,2.05,30.71
297,Pisco,0,PE,1680383758,78,-13.7,-76.2167,78.85,23.02
298,Lumeje,96,AO,1680383759,91,-11.55,20.7833,66.09,2.48
299,Ransang,100,PH,1680383759,83,8.9603,117.5828,77.76,1.01
300,Porbandar,5,IN,1680383759,76,21.6422,69.6093,75.65,8.99
301,Gamba,97,GA,1680383760,92,-2.65,10.0,75.04,4.52
302,Rietavas,100,LT,1680383760,86,55.7194,21.9311,35.11,11.63
303,Yeppoon,100,AU,1680383760,89,-23.1333,150.7333,65.98,12.62
304,Harper,30,LR,1680383760,86,4.375,-7.7169,79.77,5.68
305,Lewistown,75,US,1680383616,71,40.5992,-77.5714,59.72,19.57
306,Tezu,100,IN,1680383761,97,27.9167,96.1667,63.7,1.23
307,Plettenberg Bay,0,ZA,1680383762,73,-34.0527,23.3716,62.26,2.17
308,Hofn,1,IS,1680383762,73,64.2539,-15.2082,39.88,8.68
309,Lucapa,70,AO,1680383763,96,-8.4192,20.7447,64.81,1.68
310,Cañaveral,5,HN,1680383763,21,14.9833,-88.0167,92.43,6.06
311,Prince Rupert,20,CA,1680383764,93,54.3161,-130.3201,37.49,20.71
312,Kuytun,34,RU,1680383764,95,54.3419,101.5036,7.03,4.72
313,Kununurra,5,AU,1680383721,88,-15.7667,128.7333,76.98,5.75
314,Vardø,100,NO,1680383765,86,70.3705,31.1107,26.58,26.46
315,Mount Isa,92,AU,1680383765,40,-20.7333,139.5,71.37,6.91
316,San Patricio,98,US,1680383765,52,28.017,-97.5169,88.52,13.04
317,Osypenko,78,UA,1680383766,81,46.9136,36.8253,43.25,8.41
318,Aklavik,20,CA,1680383766,56,68.2191,-135.0107,6.8,2.3
319,Taman',100,RU,1680383766,77,45.2117,36.7161,46.47,19.42
320,Tura,97,IN,1680383767,93,25.5198,90.2201,62.76,1.52
321,Hobyo,84,SO,1680383767,75,5.3505,48.5268,83.48,13.76
322,Varhaug,5,NO,1680383767,74,58.6147,5.6457,36.95,1.3
323,Richards Bay,6,ZA,1680383768,92,-28.783,32.0377,69.75,3.8
324,Meadow Lake,8,US,1680383768,14,34.8014,-106.5436,64.83,5.46
325,Nouadhibou,0,MR,1680383768,26,20.931,-17.0347,84.18,20.71
326,Lüderitz,13,NA,1680383769,90,-26.6481,15.1594,61.48,5.23
327,Half Moon Bay,0,US,1680383769,59,37.4636,-122.4286,66.6,13.8
328,Outlook,100,CA,1680383769,100,51.5001,-107.0513,27.23,3.78
329,Tiruchchendur,33,IN,1680383769,78,8.4833,78.1167,81.05,9.53
330,Oktyabr'skiy,100,RU,1680383770,86,54.4815,53.471,37.58,1.12
331,Leninsk,100,RU,1680383770,50,48.7119,45.1994,47.82,4.43
332,Nador,0,MA,1680383770,56,35.174,-2.9287,68.25,19.57
333,Levice,91,SK,1680383771,85,48.2156,18.6071,51.49,8.28
334,Saint Anthony,0,US,1680383771,60,45.0205,-93.218,38.35,5.75
335,Saint-Augustin,58,CA,1680383771,73,51.226,-58.6502,31.46,12.12
336,Haines Junction,100,CA,1680383772,47,60.7522,-137.5108,30.15,10.36
337,Hambantota,48,LK,1680383772,84,6.1241,81.1185,77.92,2.39
338,Gigmoto,96,PH,1680383772,88,13.7796,124.39,76.55,2.51
339,Olafsvik,76,IS,1680383772,97,64.8945,-23.7142,37.26,24.58
340,Concordia,0,AR,1680383773,50,-31.393,-58.0209,72.79,7.0
341,Songjianghe,8,CN,1680383773,74,42.1859,127.479,41.23,4.32
342,Dărmăneşti,100,RO,1680383773,92,46.3667,26.4833,46.22,2.75
343,Kumul,100,CN,1680383774,23,42.8,93.45,33.21,13.35
344,Magdagachi,100,RU,1680383774,92,53.45,125.8,32.2,8.16
345,Porto-Vecchio,75,FR,1680383774,67,41.591,9.2795,62.13,26.46
346,Klaksvík,99,FO,1680383775,95,62.2266,-6.589,43.72,18.52
347,Rāpar,0,IN,1680383775,63,23.5667,70.6333,76.01,14.5
348,Andilamena,99,MG,1680383775,93,-17.0167,48.5833,65.71,4.07
349,Tuatapere,100,NZ,1680383775,82,-46.1333,167.6833,51.39,12.03
350,Dragør,0,DK,1680383776,58,55.5946,12.6664,39.18,16.11
351,Tautira,6,PF,1680383776,76,-17.7333,-149.15,82.38,11.77
352,Kaputa,43,ZM,1680383776,92,-8.4689,29.6619,65.25,3.69
353,Gornopravdinsk,96,RU,1680383776,70,60.05,69.9,32.85,14.12
354,Ilulissat,20,GL,1680383776,72,69.2167,-51.1,8.62,6.91
355,Seymchan,100,RU,1680383777,93,62.8833,152.4333,9.59,7.34
356,Gravdal,0,NO,1680383777,86,68.1214,13.5031,22.89,6.71
357,Koumra,41,TD,1680383777,31,8.9126,17.5539,89.47,2.91
358,Luau,95,AO,1680383778,98,-10.7073,22.2247,64.27,3.31
359,Dengzhou,0,CN,1680383778,32,37.8086,120.7508,50.22,5.23
360,Nishihara,40,JP,1680383778,83,26.1842,127.7558,69.46,25.32
361,Tambacounda,0,SN,1680383778,24,13.7539,-13.7586,95.05,4.61
362,Bay Roberts,58,CA,1680383779,55,47.5999,-53.2648,39.51,5.01
363,Muswellbrook,41,AU,1680383716,89,-32.2667,150.9,55.24,2.37
364,Miraflores,33,MX,1680383779,21,19.2167,-98.8083,85.03,6.35
365,Tazovsky,100,RU,1680383779,98,67.4667,78.7,33.35,19.53
366,Husavik,2,IS,1680383779,78,66.0449,-17.3389,33.57,15.19
367,La Seyne-sur-Mer,84,FR,1680383780,65,43.0982,5.8847,57.15,11.99
368,Makhalino,100,RU,1680383780,74,53.0854,46.2211,41.07,4.63
369,Paphos,75,CY,1680383780,72,34.7667,32.4167,62.38,2.3
370,Biloxi,100,US,1680383717,81,30.396,-88.8853,85.71,6.91
371,Oranjestad,20,AW,1680383781,79,12.524,-70.027,82.35,21.85
372,Mocuba,100,MZ,1680383781,97,-16.8392,36.9856,70.12,2.71
373,Qasigiannguit,33,GL,1680383781,95,68.8193,-51.1922,8.85,3.38
374,Hohhot,40,CN,1680383781,62,40.8106,111.6522,54.91,6.71
375,Torbay,75,CA,1680383782,58,47.6666,-52.7314,38.75,13.8
376,Snåase,20,NO,1680383782,96,64.2457,12.3778,27.81,3.71
377,Romny,99,UA,1680383783,87,50.751,33.4747,44.01,11.9
378,Yerbogachën,21,RU,1680383783,100,61.2767,108.0108,-16.26,3.78
379,Evensk,100,RU,1680383783,94,61.95,159.2333,21.47,6.53
380,Bonito,1,BR,1680383784,70,-21.1211,-56.4819,82.6,4.54
381,Johi,0,PK,1680383784,42,26.6921,67.6133,78.62,8.86
382,Cherepanovo,21,RU,1680383785,90,54.2222,83.381,8.06,4.05
383,Quatre Cocos,9,MU,1680383785,76,-20.2078,57.7625,77.11,7.92
384,San Miguel de Cozumel,40,MX,1680383786,61,20.5083,-86.9458,86.07,10.36
385,Belyy Yar,0,RU,1680383786,72,53.6039,91.3903,4.89,2.24
386,Aden,5,YE,1680383754,79,12.7794,45.0367,82.45,5.73
387,Ferkessédougou,33,CI,1680383786,26,9.6,-5.2,89.62,4.27
388,Manta,20,EC,1680383787,66,-0.95,-80.7333,85.78,8.05
389,Mount Gambier,16,AU,1680383199,89,-37.8333,140.7667,45.88,2.17
390,Arlit,1,NE,1680383787,7,18.7369,7.3853,75.72,12.5
391,Bonavista,62,CA,1680383787,81,48.6499,-53.1147,33.03,4.74
392,Broome,100,US,1680383788,54,42.2506,-75.833,63.01,21.85
393,Batagay-Alyta,5,RU,1680383788,89,67.8006,130.4114,-28.57,6.44
394,Kupang,20,ID,1680383788,100,-10.1667,123.5833,73.98,2.3
395,Le Vauclin,13,MQ,1680383788,83,14.5452,-60.8388,79.84,12.66
396,Stykkisholmur,100,IS,1680383789,95,65.0757,-22.7297,37.11,11.45
397,Assiut,0,EG,1680383789,31,27.181,31.1837,63.34,9.66
398,Madimba,100,TZ,1680383789,92,-10.4,40.3333,76.57,8.75
399,Eureka,100,US,1680383191,93,40.8021,-124.1637,52.66,5.99
400,Zharkovskiy,100,RU,1680383790,99,55.849,32.2697,37.8,3.85
401,Belaya Gora,100,RU,1680383791,95,68.5333,146.4167,-15.9,3.51
402,San Quintín,0,MX,1680383791,63,30.4833,-115.95,62.26,15.46
403,Manoel Urbano,100,BR,1680383791,99,-8.8389,-69.2597,73.38,1.25
404,Taungdwingyi,2,MM,1680383792,66,20.0167,95.55,77.13,3.51
405,Vallenar,42,CL,1680383792,44,-28.5708,-70.7581,80.96,8.03
406,Talcahuano,0,CL,1680383792,60,-36.7167,-73.1167,71.28,14.97
407,Kirtipur,75,NP,1680383784,86,27.6667,85.2833,51.55,2.3
408,Benguela,31,AO,1680383792,81,-12.5763,13.4055,78.17,1.9
409,Saint-Michel-des-Saints,100,CA,1680383793,100,46.6834,-73.9159,34.83,8.88
410,Powell,100,US,1680383793,81,40.1578,-83.0752,42.8,14.97
411,Lima,40,PE,1680383640,69,-12.0432,-77.0282,79.05,12.66
412,Kundiawa,84,PG,1680383793,88,-6.0167,144.9667,61.9,1.45
413,Kingori,95,TZ,1680383793,77,-3.2833,36.9833,68.36,1.07
414,Inta,100,RU,1680383793,98,66.0317,60.1659,33.39,17.07
415,Jijiga,100,ET,1680383794,74,9.35,42.8,67.41,4.41
416,Rio Grande,9,BR,1680383794,57,-32.035,-52.0986,71.71,15.26
417,Tromsø,75,NO,1680383794,74,69.6496,18.957,26.62,4.61
418,Natal,20,BR,1680383615,78,-5.795,-35.2094,81.25,6.91
419,Watsa,100,CD,1680383795,76,3.0372,29.5355,67.84,3.15
420,Aquin,1,HT,1680383795,56,18.2833,-73.4,81.95,6.11
421,Bentiu,100,SS,1680383795,11,9.2333,29.8333,83.41,1.99
